[
{"nom":"Nantes","latitude":47.218371,"longitude":-1.553621,"population":590000,"jeuxDeDonnees":35},
{"nom":"Rennes","latitude":48.113475,"longitude":-1.675707999999986,"population":413953,"jeuxDeDonnees":68},
{"nom":"Marseille","latitude":43.296482,"longitude":5.369779999999992,"population":850636,"jeuxDeDonnees":47},
{"nom":"Lyon","latitude":45.764043,"longitude":4.835658999999964,"population":491268,"jeuxDeDonnees":314},
{"nom":"Paris","latitude":48.856614,"longitude":2.3522219000000177,"population":2249975,"jeuxDeDonnees":170},
{"nom":"Bordeaux","latitude":44.837789,"longitude":-0.5791799999999512,"population":727256,"jeuxDeDonnees":17},
{"nom":"Nice","latitude":43.696036,"longitude":7.26559199999997,"population":344875,"jeuxDeDonnees":9}
]
